{
  "type": "FeatureCollection",
  "features": [
    {
      "type": "Feature",
      "geometry": {
        "type": "Point",
        "coordinates": [
          80.862541,
          26.866455
        ]
      },
      "properties": {
        "name": "SHRI RAM SWAROOP FILLING STATI BHARAT PETROLEUM DEALERS",
        "company": "BPCL",
        "city": "226001",
        "state": "Uttar Pradesh",
        "address": "600/319 PLOT NO-3A, 3B, KANAHIYA MADHOPUR, FAREEDIPUR"
      }
    },
    {
      "type": "Feature",
      "geometry": {
        "type": "Point",
        "coordinates": [
          88.6051,
          22.5981
        ]
      },
      "properties": {
        "name": "MONALISA FUEL STATION BHARAT PETROLEUM DEALERS",
        "company": "BPCL",
        "city": "24 PGS NORTH",
        "state": "West Bengal",
        "address": "GOALPOTA, HAROA"
      }
    },
    {
      "type": "Feature",
      "geometry": {
        "type": "Point",
        "coordinates": [
          77.716168,
          29.173558
        ]
      },
      "properties": {
        "name": "SIDHBALI FUELS BHARAT PETROLEUM DEALERS",
        "company": "BPCL",
        "city": "251001",
        "state": "Uttar Pradesh",
        "address": "VILLAGE JASRATPUR, NH58 ROORKEE ROAD"
      }
    },
    {
      "type": "Feature",
      "geometry": {
        "type": "Point",
        "coordinates": [
          76.841125,
          26.448169
        ]
      },
      "properties": {
        "name": "K.L.M. FILLING STATION BHARAT PETROLEUM DEALERS",
        "company": "BPCL",
        "city": "322218",
        "state": "Rajasthan",
        "address": "VILLAGE GOKALPURA, MDR"
      }
    },
    {
      "type": "Feature",
      "geometry": {
        "type": "Point",
        "coordinates": [
          72.3379064,
          23.968678
        ]
      },
      "properties": {
        "name": "REAL PETROLEUM BHARAT PETROLEUM DEALERS",
        "company": "BPCL",
        "city": "384151",
        "state": "Gujarat",
        "address": "AT UMRU CROSS ROAD, TA. SIDHPUR"
      }
    },
    {
      "type": "Feature",
      "geometry": {
        "type": "Point",
        "coordinates": [
          85.953755,
          20.399289
        ]
      },
      "properties": {
        "name": "NARAYAN FILLING STATION BHARAT PETROLEUM DEALERS",
        "company": "BPCL",
        "city": "42MOUZA",
        "state": "Odisha",
        "address": "GOBINDPUR, 42MOUJA CUTTACK"
      }
    },
    {
      "type": "Feature",
      "geometry": {
        "type": "Point",
        "coordinates": [
          78.4638274,
          15.8135518
        ]
      },
      "properties": {
        "name": "SRI SAI VENKATESWARA FILLING STATION",
        "company": "BPCL",
        "city": "518442",
        "state": "Andhra Pradesh",
        "address": "PAMULAPADU"
      }
    },
    {
      "type": "Feature",
      "geometry": {
        "type": "Point",
        "coordinates": [
          80.790973,
          16.950562
        ]
      },
      "properties": {
        "name": "GRS FILLING STAION BHARAT PETROLEUM DEALERS",
        "company": "BPCL",
        "city": "521215",
        "state": "Andhra Pradesh",
        "address": "SY NO 306-3A , VISSANNAPETA, VISSANNAPET ON SH188"
      }
    },
    {
      "type": "Feature",
      "geometry": {
        "type": "Point",
        "coordinates": [
          77.377862,
          17.667369
        ]
      },
      "properties": {
        "name": "A V CHIDRI FUELS BHARAT PETROLEUM DEALERS",
        "company": "BPCL",
        "city": "585401",
        "state": "Karnataka",
        "address": "MEENKHERA TO POLAKPALLI ON SH15, BEMALKHEDA"
      }
    },
    {
      "type": "Feature",
      "geometry": {
        "type": "Point",
        "coordinates": [
          79.658482,
          11.377724
        ]
      },
      "properties": {
        "name": "THANNIMALAI AGENCIES BHARAT PETROLEUM DEALERS",
        "company": "BPCL",
        "city": "608602",
        "state": "Tamil Nadu",
        "address": "TUNISERAMEDU VILLAGE, CHIDAMBARAM TALUK"
      }
    },
    {
      "type": "Feature",
      "geometry": {
        "type": "Point",
        "coordinates": [
          94.9936,
          28.2225
        ]
      },
      "properties": {
        "name": "AGAM ENERGY STATION BHARAT PETROLEUM DEALERS",
        "company": "BPCL",
        "city": "791102",
        "state": "Arunachal Pradesh",
        "address": "PANGIN TOWN, PANGIN AALO ROAD"
      }
    },
    {
      "type": "Feature",
      "geometry": {
        "type": "Point",
        "coordinates": [
          93.9134483,
          24.8343429
        ]
      },
      "properties": {
        "name": "LANGOL ENERGY STATION BHARAT PETROLEUM DEALERS",
        "company": "BPCL",
        "city": "91 MEITEILANGOL",
        "state": "Manipur",
        "address": "MEITEI LANGOL, LANGOL"
      }
    },
    {
      "type": "Feature",
      "geometry": {
        "type": "Point",
        "coordinates": [
          77.84084,
          11.698821
        ]
      },
      "properties": {
        "name": "SRI AMMAN TRADERS BHARAT PETROLEUM DEALERS",
        "company": "BPCL",
        "city": "AADAIYUR",
        "state": "Tamil Nadu",
        "address": "AADAIYUR,, JHALAKANDAPURAM ROAD"
      }
    },
    {
      "type": "Feature",
      "geometry": {
        "type": "Point",
        "coordinates": [
          79.491449,
          22.621011
        ]
      },
      "properties": {
        "name": "AWADHIA PETROL PUMP BHARAT PETROLEUM DEALERS",
        "company": "BPCL",
        "city": "AADEGAON",
        "state": "Madhya Pradesh",
        "address": "JOBA TO ADEGAON ROAD"
      }
    },
    {
      "type": "Feature",
      "geometry": {
        "type": "Point",
        "coordinates": [
          75.97644,
          17.542363
        ]
      },
      "properties": {
        "name": "A S BAVI PETROLEUM SERVICES BHARAT PETROLEUM DEALERS",
        "company": "BPCL",
        "city": "AAHERWADI",
        "state": "Maharashtra",
        "address": "AT POST AHERWADI, TALUKA SOUTH SOLAPUR"
      }
    },
    {
      "type": "Feature",
      "geometry": {
        "type": "Point",
        "coordinates": [
          94.8014472,
          28.1591666
        ]
      },
      "properties": {
        "name": "JAYSQUARE FUEL DEPOT BHARAT PETROLEUM DEALERS",
        "company": "BPCL",
        "city": "AALO",
        "state": "Arunachal Pradesh",
        "address": "GUMIN NAGAR, AALO TOWN"
      }
    },
    {
      "type": "Feature",
      "geometry": {
        "type": "Point",
        "coordinates": [
          75.418571,
          18.434428
        ]
      },
      "properties": {
        "name": "SAI DATTA PETROLEUM BHARAT PETROLEUM DEALERS",
        "company": "BPCL",
        "city": "AANALA",
        "state": "Maharashtra",
        "address": "INGODA, AANALA, TAL-PARANDA, TAL-PARANDA"
      }
    },
    {
      "type": "Feature",
      "geometry": {
        "type": "Point",
        "coordinates": [
          78.21381,
          26.0566
        ]
      },
      "properties": {
        "name": "SHREEJI FUELS BHARAT PETROLEUM DEALERS",
        "company": "BPCL",
        "city": "AANTRI",
        "state": "Madhya Pradesh",
        "address": "VILLAGE -AANTRI, POST ANTRI"
      }
    },
    {
      "type": "Feature",
      "geometry": {
        "type": "Point",
        "coordinates": [
          81.9608,
          21.07942
        ]
      },
      "properties": {
        "name": "MAA SIDDHESHWARI FUELS BHARAT PETROLEUM DEALERS",
        "company": "BPCL",
        "city": "AARANG",
        "state": "Chhattisgarh",
        "address": "SURVEY NO 885/6, VILLAGE KUMHARI, TEHSIL AARNAG"
      }
    },
    {
      "type": "Feature",
      "geometry": {
        "type": "Point",
        "coordinates": [
          81.94316,
          21.2432
        ]
      },
      "properties": {
        "name": "RAJENDRA FUELS AND SERVICES BHARAT PETROLEUM DEALERS",
        "company": "BPCL",
        "city": "AARANG",
        "state": "Chhattisgarh",
        "address": "JAROUD, AARANG"
      }
    },
    {
      "type": "Feature",
      "geometry": {
        "type": "Point",
        "coordinates": [
          81.957602,
          21.19681
        ]
      },
      "properties": {
        "name": "SHRI RAM FUELS BHARAT PETROLEUM DEALERS",
        "company": "BPCL",
        "city": "AARANG",
        "state": "Chhattisgarh",
        "address": "AARANG, AARANG"
      }
    },
    {
      "type": "Feature",
      "geometry": {
        "type": "Point",
        "coordinates": [
          77.876609,
          22.764766
        ]
      },
      "properties": {
        "name": "SHREEM PETROLEUM BHARAT PETROLEUM DEALERS",
        "company": "BPCL",
        "city": "AARI",
        "state": "Madhya Pradesh",
        "address": "VILLAGE AARI, TEHSIL BABAI"
      }
    },
    {
      "type": "Feature",
      "geometry": {
        "type": "Point",
        "coordinates": [
          78.7169175,
          27.1545043
        ]
      },
      "properties": {
        "name": "JAIAMBEY MIDWAY ENERGY POINT BHARAT PETROLEUM DEALERS",
        "company": "BPCL",
        "city": "AARON",
        "state": "Uttar Pradesh",
        "address": "VILLAGE AZAMADAD ON SH84"
      }
    },
    {
      "type": "Feature",
      "geometry": {
        "type": "Point",
        "coordinates": [
          70.707889,
          26.130231
        ]
      },
      "properties": {
        "name": "NEW BALAJI FUEL STATION BHARAT PETROLEUM DEALERS",
        "company": "BPCL",
        "city": "AASARI",
        "state": "Rajasthan",
        "address": "KHASRA NO779/776(OLD KHASRA 776/773, GADRA ROAD, AASARI"
      }
    },
    {
      "type": "Feature",
      "geometry": {
        "type": "Point",
        "coordinates": [
          78.132743,
          9.497997
        ]
      },
      "properties": {
        "name": "OLIVE FILLING STATION BHARAT PETROLEUM DEALERS",
        "company": "BPCL",
        "city": "AATHIPATTI",
        "state": "Tamil Nadu",
        "address": "NO754, TIRUCHULLI ROAD"
      }
    },
    {
      "type": "Feature",
      "geometry": {
        "type": "Point",
        "coordinates": [
          78.694603,
          17.323375
        ]
      },
      "properties": {
        "name": "RRR FILLING STATION BHARAT PETROLEUM DEALERS",
        "company": "BPCL",
        "city": "ABDULLAPURMET",
        "state": "Telangana",
        "address": "SY NO. 97/A, KAVADIPALLI VILLEGE, ABDULLAPURMET"
      }
    },
    {
      "type": "Feature",
      "geometry": {
        "type": "Point",
        "coordinates": [
          74.504111,
          16.660246
        ]
      },
      "properties": {
        "name": "PARAS PETROLEUM BHARAT PETROLEUM DEALERS",
        "company": "BPCL",
        "city": "ABDUL LAT",
        "state": "Maharashtra",
        "address": "GAT NO. 2293 (PART), ICHALKARANJI LAT ROAD"
      }
    },
    {
      "type": "Feature",
      "geometry": {
        "type": "Point",
        "coordinates": [
          81.75195,
          21.078794
        ]
      },
      "properties": {
        "name": "BP JHANKI BHARAT PETROLEUM DEALERS",
        "company": "BPCL",
        "city": "ABHANPUR",
        "state": "Chhattisgarh",
        "address": "K.NO.621 & 623, RAIPUR - ABHANPUR ROAD"
      }
    },
    {
      "type": "Feature",
      "geometry": {
        "type": "Point",
        "coordinates": [
          81.7291955,
          21.0320822
        ]
      },
      "properties": {
        "name": "SHARMA FILLING STATION BHARAT PETROLEUM DEALERS",
        "company": "BPCL",
        "city": "ABHANPUR",
        "state": "Chhattisgarh",
        "address": "GOTHIYARDIH, ABHANPUR"
      }
    },
    {
      "type": "Feature",
      "geometry": {
        "type": "Point",
        "coordinates": [
          81.732243,
          21.043405
        ]
      },
      "properties": {
        "name": "UDAI SERVICE STATION BHARAT PETROLEUM DEALERS",
        "company": "BPCL",
        "city": "ABHANPUR",
        "state": "Chhattisgarh",
        "address": "ABHANPUR, DHAMTARI ROAD"
      }
    },
    {
      "type": "Feature",
      "geometry": {
        "type": "Point",
        "coordinates": [
          90.6917,
          26.3279
        ]
      },
      "properties": {
        "name": "PRAGYAT SERVICE STATION BHARAT PETROLEUM DEALERS",
        "company": "BPCL",
        "city": "ABHAYAPURI",
        "state": "Assam",
        "address": "DUMURIA, PART-3, CIRCLE SRIJANGRAM"
      }
    },
    {
      "type": "Feature",
      "geometry": {
        "type": "Point",
        "coordinates": [
          78.3644,
          9.77015
        ]
      },
      "properties": {
        "name": "S. VIGNESH KARTHI FILLING STAT BHARAT PETROLEUM DEALERS",
        "company": "BPCL",
        "city": "ABHIRAMAM",
        "state": "Tamil Nadu",
        "address": "KAMUTHI - PARTHIBANUR ROAD, S.NO. 240/3B2"
      }
    },
    {
      "type": "Feature",
      "geometry": {
        "type": "Point",
        "coordinates": [
          87.640171,
          23.438522
        ]
      },
      "properties": {
        "name": "TIRUPATI BALAJI AUTO FILLING BHARAT PETROLEUM DEALERS",
        "company": "BPCL",
        "city": "ABHIRAMPUR",
        "state": "West Bengal",
        "address": "ABHIRAMPUR, MANKAR - GUSKARA ROAD"
      }
    },
    {
      "type": "Feature",
      "geometry": {
        "type": "Point",
        "coordinates": [
          79.791003,
          11.862089
        ]
      },
      "properties": {
        "name": "SRI RAJARAJESWARI AGENCY BHARAT PETROLEUM DEALERS",
        "company": "BPCL",
        "city": "ABHISHEGAPAKKAM",
        "state": "Pondicherry",
        "address": "R.S.NO.73/4, MADUKARAI ROAD, MADUKARAI ROAD"
      }
    },
    {
      "type": "Feature",
      "geometry": {
        "type": "Point",
        "coordinates": [
          73.923409,
          20.474267
        ]
      },
      "properties": {
        "name": "SHREE AVDHUT PETROLEUM BHARAT PETROLEUM DEALERS",
        "company": "BPCL",
        "city": "ABHONA",
        "state": "Maharashtra",
        "address": "PLOT NO.2&3 ABHONA NANDURI ROAD, NEXT TO RADHAKRISNA MANGAL KARYALAY"
      }
    },
    {
      "type": "Feature",
      "geometry": {
        "type": "Point",
        "coordinates": [
          74.204365,
          30.041251
        ]
      },
      "properties": {
        "name": "Amarpura Filling Station",
        "company": "IOCL",
        "city": "Abohar",
        "state": "Punjab",
        "address": "Ground Floor, Amarpura, Abohar Hanumangarh Rd, Alamgarh, Abohar-152116, Abohar, -, 152116"
      }
    },
    {
      "type": "Feature",
      "geometry": {
        "type": "Point",
        "coordinates": [
          74.08075,
          29.977
        ]
      },
      "properties": {
        "name": "Balaji Petroleum Ksk",
        "company": "IOCL",
        "city": "Abohar",
        "state": "Punjab",
        "address": "Ground Floor, Waryam Khera, Abohar, Alamgarh, Abohar-152116, Abohar, -, 152116"
      }
    },
    {
      "type": "Feature",
      "geometry": {
        "type": "Point",
        "coordinates": [
          73.903984,
          29.992369
        ]
      },
      "properties": {
        "name": "Basant Petro Centre",
        "company": "IOCL",
        "city": "Abohar",
        "state": "Punjab",
        "address": "Ground Floor, NH 15, Gumjal, Abohar Sriganganagar Rd, Alamgarh, Abohar-152116, Abohar, -, 152116"
      }
    },
    {
      "type": "Feature",
      "geometry": {
        "type": "Point",
        "coordinates": [
          74.412667,
          30.000382
        ]
      },
      "properties": {
        "name": "Bee Dee Enterprises",
        "company": "IOCL",
        "city": "Abohar",
        "state": "Punjab",
        "address": "Ground Floor, Abohar, Sitto Dabwali Rd, Khuban, Alamgarh, Abohar-152116, Abohar, -, 152116"
      }
    },
    {
      "type": "Feature",
      "geometry": {
        "type": "Point",
        "coordinates": [
          73.990885,
          29.99277
        ]
      },
      "properties": {
        "name": "Bhavika Kissan Sewa Kendra",
        "company": "IOCL",
        "city": "Abohar",
        "state": "Punjab",
        "address": "Ground Floor, Abohar, Bhangar Khera,Sarwar, Alamgarh, Abohar-152116, Abohar, -, 152116"
      }
    },
    {
      "type": "Feature",
      "geometry": {
        "type": "Point",
        "coordinates": [
          74.205803,
          30.135517
        ]
      },
      "properties": {
        "name": "Bholaram Kundanlal",
        "company": "IOCL",
        "city": "Abohar",
        "state": "Punjab",
        "address": "Ground Floor, Ferozepur, Alamgarh, Abohar-152116, Abohar, -, 152116"
      }
    },
    {
      "type": "Feature",
      "geometry": {
        "type": "Point",
        "coordinates": [
          73.90229,
          29.984086
        ]
      },
      "properties": {
        "name": "Chandan Agro Chem",
        "company": "IOCL",
        "city": "Abohar",
        "state": "Punjab",
        "address": "Ground Floor, Gumjal, Alamgarh, Abohar-152116, Abohar, -, 152116"
      }
    },
    {
      "type": "Feature",
      "geometry": {
        "type": "Point",
        "coordinates": [
          74.3854501,
          29.9564901
        ]
      },
      "properties": {
        "name": "Dashmesh Filling Station",
        "company": "HPCL",
        "city": "Abohar",
        "state": "Punjab",
        "address": "Ground Floor, Abohar Ferozepur Road, Bazidpur Bhoma, Abohar-152116, Abohar, -, 152116"
      }
    },
    {
      "type": "Feature",
      "geometry": {
        "type": "Point",
        "coordinates": [
          74.199799,
          29.961826
        ]
      },
      "properties": {
        "name": "Ess Vee Station",
        "company": "IOCL",
        "city": "Abohar",
        "state": "Punjab",
        "address": "Ground Floor, Alamgarh, Ferozpur, Rajpura, Abohar-152116, Abohar, -, 152116"
      }
    },
    {
      "type": "Feature",
      "geometry": {
        "type": "Point",
        "coordinates": [
          74.238887,
          30.160683
        ]
      },
      "properties": {
        "name": "Fazilka Dabwali Tpt Co",
        "company": "IOCL",
        "city": "Abohar",
        "state": "Punjab",
        "address": "Ground Floor, Thana Road Abohar, Ferozepur, Alamgarh, Abohar-152116, Abohar, -, 152116"
      }
    },
    {
      "type": "Feature",
      "geometry": {
        "type": "Point",
        "coordinates": [
          74.294687,
          30.112451
        ]
      },
      "properties": {
        "name": "Ganpati Kissan Seva Kendra",
        "company": "IOCL",
        "city": "Abohar",
        "state": "Punjab",
        "address": "Ground Floor, Kera Khera Link Road, Abohar, Raipura, Alamgarh, Abohar-152116, Abohar, -, 152116"
      }
    },
    {
      "type": "Feature",
      "geometry": {
        "type": "Point",
        "coordinates": [
          74.205144,
          30.153081
        ]
      },
      "properties": {
        "name": "Guru Kripa Filling Station",
        "company": "IOCL",
        "city": "Abohar",
        "state": "Punjab",
        "address": "Ground Floor, Alamgarh, Abohar-152116, Abohar, -, 152116"
      }
    },
    {
      "type": "Feature",
      "geometry": {
        "type": "Point",
        "coordinates": [
          74.186866,
          30.183275
        ]
      },
      "properties": {
        "name": "Hamara Fuel Service Station",
        "company": "IOCL",
        "city": "Abohar",
        "state": "Punjab",
        "address": "Ground Floor, Abohar, Burj Mohar, Abohar-152116, Abohar, -, 152116"
      }
    },
    {
      "type": "Feature",
      "geometry": {
        "type": "Point",
        "coordinates": [
          73.901577,
          29.980202
        ]
      },
      "properties": {
        "name": "Jain Highway Resorts",
        "company": "IOCL",
        "city": "Abohar",
        "state": "Punjab",
        "address": "Ground Floor, Gumjal, Abohar, Alamgarh, Abohar-152116, Abohar, -, 152116"
      }
    },
    {
      "type": "Feature",
      "geometry": {
        "type": "Point",
        "coordinates": [
          74.265827,
          30.101252
        ]
      },
      "properties": {
        "name": "Khurana Filling Station",
        "company": "IOCL",
        "city": "Abohar",
        "state": "Punjab",
        "address": "Ground Floor, Raipura, Abohar Sittoguno Road, Alamgarh, Abohar-152116, Abohar, -, 152116"
      }
    },
    {
      "type": "Feature",
      "geometry": {
        "type": "Point",
        "coordinates": [
          74.152701,
          30.128801
        ]
      },
      "properties": {
        "name": "KLR Modi",
        "company": "HPCL",
        "city": "Abohar",
        "state": "Punjab",
        "address": "Ground Floor, Shri Ganganagar Road, Abohar-152116, Abohar, -, 152116"
      }
    },
    {
      "type": "Feature",
      "geometry": {
        "type": "Point",
        "coordinates": [
          74.290473,
          29.989596
        ]
      },
      "properties": {
        "name": "Krishan Kumar Filling Station",
        "company": "IOCL",
        "city": "Abohar",
        "state": "Punjab",
        "address": "SH 16, Sitto Gunno to Dodewala Road, Abohar-152116, Abohar, -, 152116"
      }
    },
    {
      "type": "Feature",
      "geometry": {
        "type": "Point",
        "coordinates": [
          74.50309001,
          29.973688
        ]
      },
      "properties": {
        "name": "M/S Adhoc Varyamkhera Filling Stati",
        "company": "HPCL",
        "city": "Abohar",
        "state": "Punjab",
        "address": "Ground Floor, Dabwali Sittogunno Road, Bhitiwala, Abohar-152116, Abohar, -, 152116"
      }
    },
    {
      "type": "Feature",
      "geometry": {
        "type": "Point",
        "coordinates": [
          74.19582387,
          29.9736388
        ]
      },
      "properties": {
        "name": "M/s Bani HP Centre",
        "company": "HPCL",
        "city": "Abohar",
        "state": "Punjab",
        "address": "Ground Floor, Abohar Hanumangarh Road, Rajpura, Abohar-152116, Abohar, -, 152116"
      }
    },
    {
      "type": "Feature",
      "geometry": {
        "type": "Point",
        "coordinates": [
          74.04557787,
          30.3759223
        ]
      },
      "properties": {
        "name": "M/s Bhagwan Dass Amarnath",
        "company": "HPCL",
        "city": "Abohar",
        "state": "Punjab",
        "address": "Ground Floor, NH 10, Rampura, Abohar-152116, Abohar, -, 152116"
      }
    },
    {
      "type": "Feature",
      "geometry": {
        "type": "Point",
        "coordinates": [
          74.03461775,
          30.09374986
        ]
      },
      "properties": {
        "name": "M/s Bir HP Oil Junction",
        "company": "HPCL",
        "city": "Abohar",
        "state": "Punjab",
        "address": "Ground Floor, Abohar Ganganagar Road, Daulatpura, Abohar-152116, Abohar, -, 152116"
      }
    },
    {
      "type": "Feature",
      "geometry": {
        "type": "Point",
        "coordinates": [
          74.0713194,
          29.9932144
        ]
      },
      "properties": {
        "name": "M/S Dayanidhi Filling Station",
        "company": "HPCL",
        "city": "Abohar",
        "state": "Punjab",
        "address": "Ground Floor, Patti Sadiq Road, Shergarh, Abohar-152116, Abohar, -, 152116"
      }
    },
    {
      "type": "Feature",
      "geometry": {
        "type": "Point",
        "coordinates": [
          74.31712059,
          29.9609385
        ]
      },
      "properties": {
        "name": "M/s Hamara Pump",
        "company": "HPCL",
        "city": "Abohar",
        "state": "Punjab",
        "address": "Ground Floor, Doda Kullar Road, Rampura, Abohar-152116, Abohar, -, 152116"
      }
    },
    {
      "type": "Feature",
      "geometry": {
        "type": "Point",
        "coordinates": [
          74.35363928,
          30.02495341
        ]
      },
      "properties": {
        "name": "M/s Jasleen HP Petro Zone",
        "company": "HPCL",
        "city": "Abohar",
        "state": "Punjab",
        "address": "Ground Floor, Malout Hanumangarh Road, Sito Gunno, Abohar-152116, Abohar, -, 152116"
      }
    },
    {
      "type": "Feature",
      "geometry": {
        "type": "Point",
        "coordinates": [
          74.37433213,
          29.99129157
        ]
      },
      "properties": {
        "name": "M/S N K Poonia Filling Station",
        "company": "HPCL",
        "city": "Abohar",
        "state": "Punjab",
        "address": "Ground Floor, Abohar, Himmatpura, Abohar-152116, Abohar, -, 152116"
      }
    },
    {
      "type": "Feature",
      "geometry": {
        "type": "Point",
        "coordinates": [
          74.207551,
          29.960841
        ]
      },
      "properties": {
        "name": "M/s Ranjeet HP Speedways",
        "company": "HPCL",
        "city": "Abohar",
        "state": "Punjab",
        "address": "Ground Floor, Malout Hanumangarh Road, Dodewala, Abohar-152116, Abohar, -, 152116"
      }
    },
    {
      "type": "Feature",
      "geometry": {
        "type": "Point",
        "coordinates": [
          74.20678988,
          30.09783141
        ]
      },
      "properties": {
        "name": "M/s RS Gulati & Sons",
        "company": "HPCL",
        "city": "Abohar",
        "state": "Punjab",
        "address": "Ground Floor, Hanumangarh Road, Abohar-152116, Abohar, -, 152116"
      }
    },
    {
      "type": "Feature",
      "geometry": {
        "type": "Point",
        "coordinates": [
          74.4220801,
          29.9949401
        ]
      },
      "properties": {
        "name": "M/s Sandeep Filling Station",
        "company": "HPCL",
        "city": "Abohar",
        "state": "Punjab",
        "address": "Ground Floor, Muktsar Road, Modi Khera, Abohar-152116, Abohar, -, 152116"
      }
    },
    {
      "type": "Feature",
      "geometry": {
        "type": "Point",
        "coordinates": [
          74.27434018,
          30.16712055
        ]
      },
      "properties": {
        "name": "M/S Satguru F/S Hp, Gobindgarh",
        "company": "HPCL",
        "city": "Abohar",
        "state": "Punjab",
        "address": "Ground Floor, Abohar Malout Road, Abohar, Abohar-152116, -, 152116"
      }
    },
    {
      "type": "Feature",
      "geometry": {
        "type": "Point",
        "coordinates": [
          74.061001,
          29.99696283
        ]
      },
      "properties": {
        "name": "M/s Shergarh Filling Station",
        "company": "HPCL",
        "city": "Abohar",
        "state": "Punjab",
        "address": "Ground Floor, Shergarh Wariamkhera Road, Shergarh, Abohar-152116, Abohar, -, 152116"
      }
    },
    {
      "type": "Feature",
      "geometry": {
        "type": "Point",
        "coordinates": [
          74.08105902,
          29.98078055
        ]
      },
      "properties": {
        "name": "M/s Varyamkhera Filling Station",
        "company": "HPCL",
        "city": "Abohar",
        "state": "Punjab",
        "address": "Ground Floor, Varamkheda Hakimabad Road, Waryam Khera, Abohar-152116, Abohar, -, 152116"
      }
    },
    {
      "type": "Feature",
      "geometry": {
        "type": "Point",
        "coordinates": [
          74.20157977,
          30.14116521
        ]
      },
      "properties": {
        "name": "M/s Verma Sons",
        "company": "HPCL",
        "city": "Abohar",
        "state": "Punjab",
        "address": "Ground Floor, Gaushala Road, Abohar-152116, Abohar, -, 152116"
      }
    },
    {
      "type": "Feature",
      "geometry": {
        "type": "Point",
        "coordinates": [
          74.1895222,
          30.1495664
        ]
      },
      "properties": {
        "name": "Padhana Filling Stataion",
        "company": "HPCL",
        "city": "Abohar",
        "state": "Punjab",
        "address": "Ground Floor, Abohar Fazilka Road, Abohar-152116, Abohar, -, 152116"
      }
    },
    {
      "type": "Feature",
      "geometry": {
        "type": "Point",
        "coordinates": [
          74.038704,
          29.983101
        ]
      },
      "properties": {
        "name": "Sudhir Petro Fuels",
        "company": "IOCL",
        "city": "Abohar",
        "state": "Punjab",
        "address": "Ground Floor, Shergarh Daliyanwali Road, Shergarh, Abohar, Alamgarh, Abohar-152116, Abohar, -, 152116"
      }
    },
    {
      "type": "Feature",
      "geometry": {
        "type": "Point",
        "coordinates": [
          74.24338889,
          29.96633333
        ]
      },
      "properties": {
        "name": "Unknown",
        "company": "Jio-bp",
        "city": "Abohar",
        "state": "Punjab",
        "address": "Ground Floor, Sitto Gunno, Sadulsahar Road, Dodewala, Abohar-152116, Abohar, -, 152116"
      }
    },
    {
      "type": "Feature",
      "geometry": {
        "type": "Point",
        "coordinates": [
          74.201629,
          30.141102
        ]
      },
      "properties": {
        "name": "BHADOO FILLING STATION BHARAT PETROLEUM DEALERS",
        "company": "BPCL",
        "city": "ABOHAR",
        "state": "Punjab",
        "address": "GAUSHALA ROAD, ABOHAR"
      }
    },
    {
      "type": "Feature",
      "geometry": {
        "type": "Point",
        "coordinates": [
          74.3089395,
          30.172785
        ]
      },
      "properties": {
        "name": "BURJ MOHAR PETRO CENTER (ADHOC BHARAT PETROLEUM DEALERS",
        "company": "BPCL",
        "city": "ABOHAR",
        "state": "Punjab",
        "address": "Address not available"
      }
    },
    {
      "type": "Feature",
      "geometry": {
        "type": "Point",
        "coordinates": [
          74.189889,
          30.123139
        ]
      },
      "properties": {
        "name": "HANS RAJ MIDDHA FUELS BHARAT PETROLEUM DEALERS",
        "company": "BPCL",
        "city": "ABOHAR",
        "state": "Punjab",
        "address": "KANDWALA ROAD, ABOHAR"
      }
    },
    {
      "type": "Feature",
      "geometry": {
        "type": "Point",
        "coordinates": [
          74.19239044,
          30.13978301
        ]
      },
      "properties": {
        "name": "JAGDISH CHANDER MADAN LAL BHARAT PETROLEUM DEALERS",
        "company": "BPCL",
        "city": "ABOHAR",
        "state": "Punjab",
        "address": "CIRCULAR ROAD, ABOHAR"
      }
    },
    {
      "type": "Feature",
      "geometry": {
        "type": "Point",
        "coordinates": [
          74.2095881,
          30.0776163
        ]
      },
      "properties": {
        "name": "JASHAN FUELS BHARAT PETROLEUM DEALERS",
        "company": "BPCL",
        "city": "ABOHAR",
        "state": "Punjab",
        "address": "ABOHAR-HANUMANGARH ROAD, VILLAGE RAMSARA"
      }
    },
    {
      "type": "Feature",
      "geometry": {
        "type": "Point",
        "coordinates": [
          74.20575,
          30.124223
        ]
      },
      "properties": {
        "name": "M R CHAUDHARY FILLING STATION BHARAT PETROLEUM DEALERS",
        "company": "BPCL",
        "city": "ABOHAR",
        "state": "Punjab",
        "address": "ABOHAR-HANUMANGARH ROAD, ABOHAR"
      }
    },
    {
      "type": "Feature",
      "geometry": {
        "type": "Point",
        "coordinates": [
          74.202527,
          30.151926
        ]
      },
      "properties": {
        "name": "NAGPAL FILLING STATION BHARAT PETROLEUM DEALERS",
        "company": "BPCL",
        "city": "ABOHAR",
        "state": "Punjab",
        "address": "MALOUT - FAZILKA ROAD, ABOHAR"
      }
    },
    {
      "type": "Feature",
      "geometry": {
        "type": "Point",
        "coordinates": [
          74.200166,
          30.148389
        ]
      },
      "properties": {
        "name": "NEW ABOHAR OIL COMPANY BHARAT PETROLEUM DEALERS",
        "company": "BPCL",
        "city": "ABOHAR",
        "state": "Punjab",
        "address": "OPP. SANDEEP CINEMA, THANA ROAD"
      }
    },
    {
      "type": "Feature",
      "geometry": {
        "type": "Point",
        "coordinates": [
          78.340531,
          29.5417283
        ]
      },
      "properties": {
        "name": "SHRI GAUTAM FUEL STATION BHARAT PETROLEUM DEALERS",
        "company": "BPCL",
        "city": "ABULFAZALPUR TABELA",
        "state": "Uttar Pradesh",
        "address": "VILLAGE ABULFAZALPUR TABELA, VILLAGE ABULFAZALPUR TABELA"
      }
    },
    {
      "type": "Feature",
      "geometry": {
        "type": "Point",
        "coordinates": [
          84.84183,
          26.7121
        ]
      },
      "properties": {
        "name": "SINGH DWARPALI FUELS BHARAT PETROLEUM DEALERS",
        "company": "BPCL",
        "city": "ACHALDA",
        "state": "Bihar",
        "address": "PACHRUKHA, PACHRUKHA JHAKIA ROAD"
      }
    },
    {
      "type": "Feature",
      "geometry": {
        "type": "Point",
        "coordinates": [
          79.4405981,
          26.7114769
        ]
      },
      "properties": {
        "name": "SUNDARI DEVI FILLING STATION BHARAT PETROLEUM DEALERS",
        "company": "BPCL",
        "city": "ACHALDA",
        "state": "Uttar Pradesh",
        "address": "VILLAGE- BANSI, ACHALDA RAMGARH ROAD"
      }
    },
    {
      "type": "Feature",
      "geometry": {
        "type": "Point",
        "coordinates": [
          80.482007,
          26.514876
        ]
      },
      "properties": {
        "name": "PADAM SERVICE STATION BHARAT PETROLEUM DEALERS",
        "company": "BPCL",
        "city": "ACHALGANJ",
        "state": "Uttar Pradesh",
        "address": "UNNAO BYE PASS, UNNAO"
      }
    },
    {
      "type": "Feature",
      "geometry": {
        "type": "Point",
        "coordinates": [
          77.4752567,
          21.2950714
        ]
      },
      "properties": {
        "name": "BANSAL PETROLEUM BHARAT PETROLEUM DEALERS",
        "company": "BPCL",
        "city": "ACHALPUR",
        "state": "Maharashtra",
        "address": "SURVEY NO 36/1 ON NH548C, VILLAGE MURADPUR, TEHSIL ACHALPUR"
      }
    },
    {
      "type": "Feature",
      "geometry": {
        "type": "Point",
        "coordinates": [
          77.5179,
          21.28901
        ]
      },
      "properties": {
        "name": "OMKARMAL JODHRAJ ACHALPUR BHARAT PETROLEUM DEALERS",
        "company": "BPCL",
        "city": "ACHALPUR",
        "state": "Maharashtra",
        "address": "DURANI CHOWK, MAIN ROAD"
      }
    },
    {
      "type": "Feature",
      "geometry": {
        "type": "Point",
        "coordinates": [
          77.517891,
          21.289019
        ]
      },
      "properties": {
        "name": "OMKARMAL JODHRAJ BHARAT PETROLEUM DEALERS",
        "company": "BPCL",
        "city": "ACHALPUR",
        "state": "Maharashtra",
        "address": "NEAR BUS STAND, PARATWADA"
      }
    },
    {
      "type": "Feature",
      "geometry": {
        "type": "Point",
        "coordinates": [
          77.516652,
          21.298926
        ]
      },
      "properties": {
        "name": "OMKARMAL  JODHRAJ  KHARPI BHARAT PETROLEUM DEALERS",
        "company": "BPCL",
        "city": "ACHALPUR",
        "state": "Maharashtra",
        "address": "KHARPI"
      }
    },
    {
      "type": "Feature",
      "geometry": {
        "type": "Point",
        "coordinates": [
          77.530733,
          21.248099
        ]
      },
      "properties": {
        "name": "SHRI DATTASAI AUTOMOBILES BHARAT PETROLEUM DEALERS",
        "company": "BPCL",
        "city": "ACHALPUR",
        "state": "Maharashtra",
        "address": "KAILASHWADI, ACHALPUR AMRAVATI ROAD"
      }
    },
    {
      "type": "Feature",
      "geometry": {
        "type": "Point",
        "coordinates": [
          78.660141,
          16.402731
        ]
      },
      "properties": {
        "name": "ZS FUELING STATION BHARAT PETROLEUM DEALERS",
        "company": "BPCL",
        "city": "ACHAMPET",
        "state": "Telangana",
        "address": "SURVEY NO.133AA/2,ACHAMPET, NAGARKURNOOL DISTRICT"
      }
    },
    {
      "type": "Feature",
      "geometry": {
        "type": "Point",
        "coordinates": [
          78.630436,
          16.396996
        ]
      },
      "properties": {
        "name": "SREE GURU RAGHAVENDRA FUEL STA BHARAT PETROLEUM DEALERS",
        "company": "BPCL",
        "city": "ACHAMPET V&M",
        "state": "Telangana",
        "address": "SY.NO288/AA2,, ACHAMPET MAIN ROAD"
      }
    },
    {
      "type": "Feature",
      "geometry": {
        "type": "Point",
        "coordinates": [
          77.906485,
          18.675657
        ]
      },
      "properties": {
        "name": "LAXMI ENTERPRISES BHARAT PETROLEUM DEALERS",
        "company": "BPCL",
        "city": "ACHANPALLY",
        "state": "Telangana",
        "address": "Address not available"
      }
    },
    {
      "type": "Feature",
      "geometry": {
        "type": "Point",
        "coordinates": [
          75.742518,
          26.757567
        ]
      },
      "properties": {
        "name": "OM SHRI GOVIND FILLING STATION BHARAT PETROLEUM DEALERS",
        "company": "BPCL",
        "city": "ACHARAWALA JAIPUR",
        "state": "Rajasthan",
        "address": "KHASRA NO. 715/517 AND 717/518, ACHRAWALA"
      }
    },
    {
      "type": "Feature",
      "geometry": {
        "type": "Point",
        "coordinates": [
          77.75665496,
          27.18393636
        ]
      },
      "properties": {
        "name": "RAMJILAL FILLING STATION BHARAT PETROLEUM DEALERS",
        "company": "BPCL",
        "city": "ACHHNERA",
        "state": "Uttar Pradesh",
        "address": "ACHHNERA WML, ACHHNERA - FARAH ROAD"
      }
    },
    {
      "type": "Feature",
      "geometry": {
        "type": "Point",
        "coordinates": [
          73.5146623,
          16.2264495
        ]
      },
      "properties": {
        "name": "SWAMI RAMESHWAR PETROL PUMP BHARAT PETROLEUM DEALERS",
        "company": "BPCL",
        "city": "ACHRA",
        "state": "Maharashtra",
        "address": "BAGADWADI,TRIMBAK, ACHRA KANKAVALI ROAD"
      }
    },
    {
      "type": "Feature",
      "geometry": {
        "type": "Point",
        "coordinates": [
          83.035696,
          25.157139
        ]
      },
      "properties": {
        "name": "DINESH AUTO FUELS BHARAT PETROLEUM DEALERS",
        "company": "BPCL",
        "city": "ADALHAT",
        "state": "Uttar Pradesh",
        "address": "ADALHAT, BARADIH"
      }
    },
    {
      "type": "Feature",
      "geometry": {
        "type": "Point",
        "coordinates": [
          83.079638,
          25.15897
        ]
      },
      "properties": {
        "name": "RADHEYSHYAM FILING STATION BHARAT PETROLEUM DEALERS",
        "company": "BPCL",
        "city": "ADALHAT",
        "state": "Uttar Pradesh",
        "address": "VILL HARDA SAHEJNAI MIRZAPUR, JAMALPUR MIRZAPUR"
      }
    },
    {
      "type": "Feature",
      "geometry": {
        "type": "Point",
        "coordinates": [
          81.19685,
          16.95828
        ]
      },
      "properties": {
        "name": "SRI RAGHAVENDRA FILLING STATIO BHARAT PETROLEUM DEALERS",
        "company": "BPCL",
        "city": "ADAMALLI",
        "state": "Andhra Pradesh",
        "address": "ELURU-JANGAREDDYGUDEM ROAD, JANGAREDDYGUDEM ROAD"
      }
    },
    {
      "type": "Feature",
      "geometry": {
        "type": "Point",
        "coordinates": [
          75.481192,
          29.280924
        ]
      },
      "properties": {
        "name": "KISHAN LAL LAKHI RAM BHARAT PETROLEUM DEALERS",
        "company": "BPCL",
        "city": "ADAMPUR",
        "state": "Haryana",
        "address": "MANDI ADAMPUR, MANDI ADAMPUR"
      }
    },
    {
      "type": "Feature",
      "geometry": {
        "type": "Point",
        "coordinates": [
          77.608682,
          27.765353
        ]
      },
      "properties": {
        "name": "NETAJI FILLING STATION BHARAT PETROLEUM DEALERS",
        "company": "BPCL",
        "city": "ADAMPUR",
        "state": "Uttar Pradesh",
        "address": "KHASRA NO 358/1, ADAMPUR"
      }
    },
    {
      "type": "Feature",
      "geometry": {
        "type": "Point",
        "coordinates": [
          75.450797,
          29.295923
        ]
      },
      "properties": {
        "name": "PANWAR FILLING STATION BHARAT PETROLEUM DEALERS",
        "company": "BPCL",
        "city": "ADAMPUR",
        "state": "Haryana",
        "address": "MANDI ADAMPUR, KHARA BARWALA"
      }
    },
    {
      "type": "Feature",
      "geometry": {
        "type": "Point",
        "coordinates": [
          78.350937,
          28.512535
        ]
      },
      "properties": {
        "name": "SHRI RATAN FILLING STATION BHARAT PETROLEUM DEALERS",
        "company": "BPCL",
        "city": "ADAMPUR",
        "state": "Uttar Pradesh",
        "address": "VILL. ADAMPUR, AMROHA, VILL. ADAMPUR, AMROHA"
      }
    }
  ]
}